<?xml version="1.0" encoding="UTF-8"?>
    <kml xmlns="http://www.opengis.net/kml/2.2">
    <Document>
        <name>Shortest Path</name>
        <description>Generated by Graph Explorer</description>
        <Style id="pathStyle">
            <LineStyle>
                <color>ff00ffff</color>
                <width>4</width>
            </LineStyle>
        </Style>
        <Style id="nodeStyle">
            <IconStyle>
                <color>ffffff00</color>
                <scale>1.0</scale>
                <Icon>
                    <href>http://maps.google.com/mapfiles/kml/shapes/placemark_circle.png</href>
                </Icon>
            </IconStyle>
        </Style>
    
        <Placemark>
            <name>Shortest Path</name>
            <description>From ZARKO to TURUV</description>
            <styleUrl>#pathStyle</styleUrl>
            <LineString>
                <coordinates>
                    -0.7927777778,42.005,0
                -0.3533333333,41.9047222222,0
                0.1594444444,41.7855555556,0
                0.3183333333,41.7480555556,0
                0.3763888889,41.9791666667,0
                0.475,42.3675,0
            </coordinates>
            </LineString>
        </Placemark>
    
        <Placemark>
            <name>ZARKO</name>
            <description>Node 1 in path</description>
            <styleUrl>#nodeStyle</styleUrl>
            <Point>
                <coordinates>-0.7927777778,42.005,0</coordinates>
            </Point>
        </Placemark>
    
        <Placemark>
            <name>VAKIN</name>
            <description>Node 2 in path</description>
            <styleUrl>#nodeStyle</styleUrl>
            <Point>
                <coordinates>-0.3533333333,41.9047222222,0</coordinates>
            </Point>
        </Placemark>
    
        <Placemark>
            <name>DIRMU</name>
            <description>Node 3 in path</description>
            <styleUrl>#nodeStyle</styleUrl>
            <Point>
                <coordinates>0.1594444444,41.7855555556,0</coordinates>
            </Point>
        </Placemark>
    
        <Placemark>
            <name>LOBAR</name>
            <description>Node 4 in path</description>
            <styleUrl>#nodeStyle</styleUrl>
            <Point>
                <coordinates>0.3183333333,41.7480555556,0</coordinates>
            </Point>
        </Placemark>
    
        <Placemark>
            <name>GRAUS</name>
            <description>Node 5 in path</description>
            <styleUrl>#nodeStyle</styleUrl>
            <Point>
                <coordinates>0.3763888889,41.9791666667,0</coordinates>
            </Point>
        </Placemark>
    
        <Placemark>
            <name>TURUV</name>
            <description>Node 6 in path</description>
            <styleUrl>#nodeStyle</styleUrl>
            <Point>
                <coordinates>0.475,42.3675,0</coordinates>
            </Point>
        </Placemark>
    
    </Document>
    </kml>
    